<?xml version='1.0' encoding='utf-8'?>
<kml xmlns="http://www.opengis.net/kml/2.2"><Document><name>Top 100 Best Coffee Shops</name><Style id="top10"><IconStyle><scale>1.2</scale></IconStyle></Style><Style id="default"><IconStyle><scale>1.0</scale></IconStyle></Style><Folder><name>South America</name><Placemark><name>1. Tropicalia Coffee</name><description>, Colombia</description><styleUrl>#top10</styleUrl><Point><coordinates>-74.0506899,4.6637286,0</coordinates></Point></Placemark><Placemark><name>2. Kafi Wasi Café Tostaduría</name><description>a white sillar (ashlar […], Peru</description><styleUrl>#top10</styleUrl><Point><coordinates>-71.5392097,-16.3986215,0</coordinates></Point></Placemark><Placemark><name>3. Holaste! Specialty Coffee</name><description>Natales,  Región de Magallanes, Chile</description><styleUrl>#top10</styleUrl><Point><coordinates>-72.50746,-51.7261499,0</coordinates></Point></Placemark><Placemark><name>4. FANKØR</name><description>, Ecuador</description><styleUrl>#top10</styleUrl><Point><coordinates>-78.4819266,-0.20011,0</coordinates></Point></Placemark><Placemark><name>5. TRIBUTO casa de café &amp;#8211; Chacao</name><description>, Venezuela</description><styleUrl>#top10</styleUrl><Point><coordinates>-66.854226,10.4954806,0</coordinates></Point></Placemark><Placemark><name>6. FRUTO Café</name><description>, Argentina</description><styleUrl>#top10</styleUrl><Point><coordinates>-58.42579749999999,-34.5859867,0</coordinates></Point></Placemark><Placemark><name>7. Monotono Specialty Coffee</name><description>, Peru</description><styleUrl>#top10</styleUrl><Point><coordinates>-77.0219778,-12.1402626,0</coordinates></Point></Placemark><Placemark><name>8. Cupping Café</name><description>, Brazil</description><styleUrl>#top10</styleUrl><Point><coordinates>-46.68882139999999,-23.5549482,0</coordinates></Point></Placemark><Placemark><name>9. Puku Puku</name><description>, Peru</description><styleUrl>#top10</styleUrl><Point><coordinates>-77.0265031,-12.1220962,0</coordinates></Point></Placemark><Placemark><name>10. Eco Mapu Coffee Villarica</name><description>, Chile</description><styleUrl>#top10</styleUrl><Point><coordinates>-72.224107,-39.2843333,0</coordinates></Point></Placemark><Placemark><name>11. Typica Café</name><description>La Paz, Bolivia, Bolivia</description><styleUrl>#default</styleUrl><Point><coordinates>-66.1545245,-17.4031996,0</coordinates></Point></Placemark><Placemark><name>12. Pergamino Café Laureles</name><description>, Colombia</description><styleUrl>#default</styleUrl><Point><coordinates>-75.59618689999999,6.2413788,0</coordinates></Point></Placemark><Placemark><name>13. Caferatto Café Especial</name><description>, Colombia</description><styleUrl>#default</styleUrl><Point><coordinates>-75.4877292,5.057979899999999,0</coordinates></Point></Placemark><Placemark><name>14. Wake Up Coffee Lab</name><description>Punta Arenas, Región de Magallanes, Chile</description><styleUrl>#default</styleUrl><Point><coordinates>-70.90637699999999,-53.1650489,0</coordinates></Point></Placemark><Placemark><name>15. Masaro Café</name><description>Chiclayo, Peru, Peru</description><styleUrl>#default</styleUrl><Point><coordinates>-79.83960569999999,-6.7798677,0</coordinates></Point></Placemark><Placemark><name>16. Mulano Coffee Shop</name><description>the south of Ecuador in a city of 25,000 inhabitants called Piñas, Ecuador</description><styleUrl>#default</styleUrl><Point><coordinates>-79.6816882,-3.6800524,0</coordinates></Point></Placemark><Placemark><name>17. Origen Tostadores de Café</name><description>, Peru</description><styleUrl>#default</styleUrl><Point><coordinates>-77.06629579999999,-12.0725883,0</coordinates></Point></Placemark><Placemark><name>18. Casa Canela</name><description>, Venezuela</description><styleUrl>#default</styleUrl><Point><coordinates>-66.8258463,10.424004,0</coordinates></Point></Placemark><Placemark><name>19. Mugen Coffee Project</name><description>, Bolivia</description><styleUrl>#default</styleUrl><Point><coordinates>-68.1260746,-16.5104006,0</coordinates></Point></Placemark><Placemark><name>20. Coffee Five</name><description>, Brazil</description><styleUrl>#default</styleUrl><Point><coordinates>-43.17691079999999,-22.9026279,0</coordinates></Point></Placemark><Placemark><name>21. Café Guayasamin &amp;#8211; Centro Quito</name><description>, Ecuador</description><styleUrl>#default</styleUrl><Point><coordinates>-78.5116685,-0.2189069,0</coordinates></Point></Placemark><Placemark><name>22. Café de Barrio</name><description>, Argentina</description><styleUrl>#default</styleUrl><Point><coordinates>-64.1856615,-31.4238479,0</coordinates></Point></Placemark><Placemark><name>23. Three Monkeys Coffee Cusco</name><description>, Peru</description><styleUrl>#default</styleUrl><Point><coordinates>-71.9749574,-13.5177829,0</coordinates></Point></Placemark><Placemark><name>24. Abstrakto Café de Especialidad</name><description>, Uruguay</description><styleUrl>#default</styleUrl><Point><coordinates>-54.9416513,-34.9185261,0</coordinates></Point></Placemark><Placemark><name>25. Neira Café Lab</name><description>, Peru</description><styleUrl>#default</styleUrl><Point><coordinates>-77.0398428,-12.1169774,0</coordinates></Point></Placemark><Placemark><name>26. Café Local</name><description>Villarrica, Chile, Chile</description><styleUrl>#default</styleUrl><Point><coordinates>-72.225757,-39.27974529999999,0</coordinates></Point></Placemark><Placemark><name>27. Tasta Café</name><description>, Peru</description><styleUrl>#default</styleUrl><Point><coordinates>-70.3483682,-13.3545463,0</coordinates></Point></Placemark><Placemark><name>28. Oso Café</name><description>, Peru</description><styleUrl>#default</styleUrl><Point><coordinates>-71.5356616,-16.3968981,0</coordinates></Point></Placemark><Placemark><name>29. Insignia Coffee</name><description>, Colombia</description><styleUrl>#default</styleUrl><Point><coordinates>-75.2132865,4.4358149,0</coordinates></Point></Placemark><Placemark><name>30. Alquimia Specialty Coffee Shop</name><description>, Bolivia</description><styleUrl>#default</styleUrl><Point><coordinates>-63.19810939999999,-17.7602375,0</coordinates></Point></Placemark><Placemark><name>31. Antaqa Café</name><description>, Peru</description><styleUrl>#default</styleUrl><Point><coordinates>-74.2235208,-13.1589265,0</coordinates></Point></Placemark><Placemark><name>32. Café 4 Llamas &amp;#8211; Santa Cruz</name><description>, Bolivia</description><styleUrl>#default</styleUrl><Point><coordinates>-63.19784619999999,-17.7585218,0</coordinates></Point></Placemark><Placemark><name>33. Café Micelio Puerto Varas</name><description>, Chile</description><styleUrl>#default</styleUrl><Point><coordinates>-72.98651509999999,-41.3153911,0</coordinates></Point></Placemark><Placemark><name>34. Rua &amp;#8211; Café de especialidad curado</name><description>Guayaquil, Ecuador, Ecuador</description><styleUrl>#default</styleUrl><Point><coordinates>-79.908406,-2.1718812,0</coordinates></Point></Placemark><Placemark><name>35. Café 18 &amp;#8211; El Chicó</name><description>, Colombia</description><styleUrl>#default</styleUrl><Point><coordinates>-74.04628380000001,4.6799577,0</coordinates></Point></Placemark><Placemark><name>36. Cronopios Café</name><description>, Ecuador</description><styleUrl>#default</styleUrl><Point><coordinates>-79.2006097,-4.0003898,0</coordinates></Point></Placemark><Placemark><name>37. Abisinia Café y Tostaduria</name><description>, Peru</description><styleUrl>#default</styleUrl><Point><coordinates>-77.06032309999999,-12.0732751,0</coordinates></Point></Placemark><Placemark><name>38. Slow Brew Coffee Shop Cuenca</name><description>, Ecuador</description><styleUrl>#default</styleUrl><Point><coordinates>-79.0078211,-2.9039769,0</coordinates></Point></Placemark><Placemark><name>39. Hb Bronze Coffeebar</name><description>, Bolivia</description><styleUrl>#default</styleUrl><Point><coordinates>-68.13051999999999,-16.498013,0</coordinates></Point></Placemark><Placemark><name>40. Tres</name><description>, Argentina</description><styleUrl>#default</styleUrl><Point><coordinates>-58.4482811,-34.5732721,0</coordinates></Point></Placemark><Placemark><name>41. Don Salazar</name><description>, Peru</description><styleUrl>#default</styleUrl><Point><coordinates>-77.0292387,-12.0925341,0</coordinates></Point></Placemark><Placemark><name>42. Cuervo Café</name><description>, Argentina</description><styleUrl>#default</styleUrl><Point><coordinates>-58.42586310000001,-34.5903852,0</coordinates></Point></Placemark><Placemark><name>43. Punto Café</name><description>, Peru</description><styleUrl>#default</styleUrl><Point><coordinates>-77.0413763,-12.1162995,0</coordinates></Point></Placemark><Placemark><name>44. Famosta Café</name><description>, Colombia</description><styleUrl>#default</styleUrl><Point><coordinates>-75.6844211,4.8034417,0</coordinates></Point></Placemark><Placemark><name>45. Negro Cueva de Café</name><description>, Argentina</description><styleUrl>#default</styleUrl><Point><coordinates>-58.3795636,-34.600878,0</coordinates></Point></Placemark><Placemark><name>46. Libertario Coffee Roasters &amp;#8211; Calle 70a</name><description>, Colombia</description><styleUrl>#default</styleUrl><Point><coordinates>-74.0550531,4.6528621,0</coordinates></Point></Placemark><Placemark><name>47. Surry Hills Coffee Palermo</name><description>, Argentina</description><styleUrl>#default</styleUrl><Point><coordinates>-58.43125309999999,-34.5722688,0</coordinates></Point></Placemark><Placemark><name>48. Azahar Café</name><description>, Colombia</description><styleUrl>#default</styleUrl><Point><coordinates>-74.0500933,4.6780191,0</coordinates></Point></Placemark><Placemark><name>49. D&amp;#8217;Sala Caffe</name><description>, Peru</description><styleUrl>#default</styleUrl><Point><coordinates>-77.0244886,-12.1164962,0</coordinates></Point></Placemark><Placemark><name>50. Cafe Folks</name><description>, Chile</description><styleUrl>#default</styleUrl><Point><coordinates>-72.9886654,-41.3191461,0</coordinates></Point></Placemark><Placemark><name>51. Café Melosa</name><description>, Venezuela</description><styleUrl>#default</styleUrl><Point><coordinates>-66.8566818,10.497567,0</coordinates></Point></Placemark><Placemark><name>52. Florencia y Fortunata Specialty Coffee</name><description>Cusco, Peru, Peru</description><styleUrl>#default</styleUrl><Point><coordinates>-71.9789421,-13.5154928,0</coordinates></Point></Placemark><Placemark><name>53. Roaster Specialty Coffee</name><description>, Bolivia</description><styleUrl>#default</styleUrl><Point><coordinates>-68.0787612,-16.5415834,0</coordinates></Point></Placemark><Placemark><name>54. Stratto Bodega de Café + Coffee Shop</name><description>, Ecuador</description><styleUrl>#default</styleUrl><Point><coordinates>-78.48703669999999,-0.180305,0</coordinates></Point></Placemark><Placemark><name>55. Raiz Coffee</name><description>, Peru</description><styleUrl>#default</styleUrl><Point><coordinates>-77.031477,-12.1234781,0</coordinates></Point></Placemark><Placemark><name>56. Café Buena Vista</name><description>, Bolivia</description><styleUrl>#default</styleUrl><Point><coordinates>-63.2034664,-17.7657214,0</coordinates></Point></Placemark><Placemark><name>57. Buho Nomada</name><description>Puerto Montt, Los Lagos region, Chile</description><styleUrl>#default</styleUrl><Point><coordinates>-72.93654049999999,-41.4480761,0</coordinates></Point></Placemark><Placemark><name>58. Colo Coffee</name><description>, Colombia</description><styleUrl>#default</styleUrl><Point><coordinates>-74.03150409999999,4.6944672,0</coordinates></Point></Placemark><Placemark><name>59. Atmosférico Cafetería de Especialidad</name><description>Samborondón, Ecuador at CC Diana Quintana 2, Ecuador</description><styleUrl>#default</styleUrl><Point><coordinates>-79.86440619999999,-2.1282086,0</coordinates></Point></Placemark><Placemark><name>60. Indera Experience Cafetería de especialidad</name><description>, Ecuador</description><styleUrl>#default</styleUrl><Point><coordinates>-79.2330048,-3.9824605,0</coordinates></Point></Placemark><Placemark><name>61. Kofi &amp;amp; Co</name><description>, Brazil</description><styleUrl>#default</styleUrl><Point><coordinates>-46.70532559999999,-23.631267,0</coordinates></Point></Placemark><Placemark><name>62. TIPICA CAFÉ Milla de Oro</name><description>, Colombia</description><styleUrl>#default</styleUrl><Point><coordinates>-75.5727,6.1991438,0</coordinates></Point></Placemark><Placemark><name>63. Coffee Busters Roastery</name><description>, Peru</description><styleUrl>#default</styleUrl><Point><coordinates>-77.03658999999999,-12.0909295,0</coordinates></Point></Placemark><Placemark><name>64. Mato Café</name><description>the heart of Arpoador, in Rio de Janeiro, Brazil</description><styleUrl>#default</styleUrl><Point><coordinates>-43.191019,-22.9872443,0</coordinates></Point></Placemark><Placemark><name>65. Cafetería Tunki Katari</name><description>, Peru</description><styleUrl>#default</styleUrl><Point><coordinates>-77.0013429,-12.1011967,0</coordinates></Point></Placemark><Placemark><name>66. KOF &amp;#8211; king of the fork</name><description>, Brazil</description><styleUrl>#default</styleUrl><Point><coordinates>-46.6837871,-23.5640501,0</coordinates></Point></Placemark><Placemark><name>67. Cafe Ao Leu</name><description>Rio de Janeiro, Brazil</description><styleUrl>#default</styleUrl><Point><coordinates>-43.1905087,-22.9798128,0</coordinates></Point></Placemark><Placemark><name>68. Primates Tostadores</name><description>Talca, Chile (Calle 30 Oriente 1562, Chile</description><styleUrl>#default</styleUrl><Point><coordinates>-71.6260985,-35.428329,0</coordinates></Point></Placemark><Placemark><name>69. Lucca Cafes Especiais</name><description>, Brazil</description><styleUrl>#default</styleUrl><Point><coordinates>-49.28228679999999,-25.4379587,0</coordinates></Point></Placemark><Placemark><name>70. María Julio Coffee Shop</name><description>the heart of Cartagena, on the Colombian Caribbean coast, Colombia</description><styleUrl>#default</styleUrl><Point><coordinates>-75.53251480000002,10.4100715,0</coordinates></Point></Placemark><Placemark><name>71. Kaweh Coffee Shop</name><description>, Ecuador</description><styleUrl>#default</styleUrl><Point><coordinates>-79.20147399999999,-4.0013035,0</coordinates></Point></Placemark><Placemark><name>72. Puma Café</name><description>, Peru</description><styleUrl>#default</styleUrl><Point><coordinates>-77.0366619,-12.07669,0</coordinates></Point></Placemark><Placemark><name>73. Dagadá</name><description>the south of Ecuador, in Loja, Ecuador</description><styleUrl>#default</styleUrl><Point><coordinates>-79.1979398,-3.9989485,0</coordinates></Point></Placemark><Placemark><name>74. SOMOS Specialty Coffee</name><description>, Bolivia</description><styleUrl>#default</styleUrl><Point><coordinates>-65.262736,-19.043792,0</coordinates></Point></Placemark><Placemark><name>75. Coffeestylers</name><description>Bogotá, Colombia (Calle 57 #19‑35), Colombia</description><styleUrl>#default</styleUrl><Point><coordinates>-74.07016159999999,4.6448595,0</coordinates></Point></Placemark><Placemark><name>76. Amanecer Coffee Store</name><description>Venezuela, specifically in Araure, Venezuela</description><styleUrl>#default</styleUrl><Point><coordinates>-69.22166469999999,9.5865393,0</coordinates></Point></Placemark><Placemark><name>77. ARTEMISA Coffee &amp;amp; Cocktail Bar</name><description>, Chile</description><styleUrl>#default</styleUrl><Point><coordinates>-70.60438789999999,-33.4169162,0</coordinates></Point></Placemark><Placemark><name>78. Alto Tostado Coffee Roasters &amp;#8211; Santa Cruz</name><description>, Bolivia</description><styleUrl>#default</styleUrl><Point><coordinates>-63.2019765,-17.7715198,0</coordinates></Point></Placemark><Placemark><name>79. Eleganza Coffee Roasters</name><description>, Chile</description><styleUrl>#default</styleUrl><Point><coordinates>-71.65843749999999,-38.8321875,0</coordinates></Point></Placemark><Placemark><name>80. Ciclos Café</name><description>, Peru</description><styleUrl>#default</styleUrl><Point><coordinates>-77.0223139,-12.1460237,0</coordinates></Point></Placemark><Placemark><name>81. BlackSoul Café Brewing Lab</name><description>, Bolivia</description><styleUrl>#default</styleUrl><Point><coordinates>-66.14554520000002,-17.3726904,0</coordinates></Point></Placemark><Placemark><name>82. MARRÓN CAFÉ</name><description>, Venezuela</description><styleUrl>#default</styleUrl><Point><coordinates>-68.0173307,10.2126537,0</coordinates></Point></Placemark><Placemark><name>83. Laurino Coffee</name><description>, Colombia</description><styleUrl>#default</styleUrl><Point><coordinates>-75.66401189999999,4.5476746,0</coordinates></Point></Placemark><Placemark><name>84. Cafe Nexos</name><description>, Venezuela</description><styleUrl>#default</styleUrl><Point><coordinates>-71.1935134,8.5629745,0</coordinates></Point></Placemark><Placemark><name>85. 9 Gramos Café</name><description>, Colombia</description><styleUrl>#default</styleUrl><Point><coordinates>-75.68796619999999,4.8042492,0</coordinates></Point></Placemark><Placemark><name>86. MANVA Natural Market</name><description>Chacao, Caracas (Venezuela), Venezuela</description><styleUrl>#default</styleUrl><Point><coordinates>-66.8526217,10.495994,0</coordinates></Point></Placemark><Placemark><name>87. Rita Specialty Coffee Armenia</name><description>, Argentina</description><styleUrl>#default</styleUrl><Point><coordinates>-58.42827149999999,-34.5901672,0</coordinates></Point></Placemark><Placemark><name>88. Café Black Mamba</name><description>, Chile</description><styleUrl>#default</styleUrl><Point><coordinates>-70.6183506,-33.4333121,0</coordinates></Point></Placemark><Placemark><name>89. Kaffe&amp;#8217;i</name><description>the heart of the historic district of Asunción, this specialty coffee […], Paraguay</description><styleUrl>#default</styleUrl><Point><coordinates>-57.63593820000001,-25.2814154,0</coordinates></Point></Placemark><Placemark><name>90. Elevaria Café</name><description>, Peru</description><styleUrl>#default</styleUrl><Point><coordinates>-79.0398141,-8.128140199999999,0</coordinates></Point></Placemark><Placemark><name>91. Casa Berracos</name><description>the heart of La Blanqueada, Montevideo, Uruguay</description><styleUrl>#default</styleUrl><Point><coordinates>-56.15733969999999,-34.8888744,0</coordinates></Point></Placemark><Placemark><name>92. Senzuru Coffee</name><description>, Peru</description><styleUrl>#default</styleUrl><Point><coordinates>-77.0387137,-12.0916239,0</coordinates></Point></Placemark><Placemark><name>93. Anella Café</name><description>, Venezuela</description><styleUrl>#default</styleUrl><Point><coordinates>-68.0145359,10.2200669,0</coordinates></Point></Placemark><Placemark><name>94. Kajue Café</name><description>, Argentina</description><styleUrl>#default</styleUrl><Point><coordinates>-58.4240992,-34.5863954,0</coordinates></Point></Placemark><Placemark><name>95. Varietale Chapinero</name><description>, Colombia</description><styleUrl>#default</styleUrl><Point><coordinates>-74.06060339999999,4.642371499999999,0</coordinates></Point></Placemark><Placemark><name>96. Ninina</name><description>, Argentina</description><styleUrl>#default</styleUrl><Point><coordinates>-58.42860640000001,-34.5912677,0</coordinates></Point></Placemark><Placemark><name>97. Guanacoffee</name><description>, Peru</description><styleUrl>#default</styleUrl><Point><coordinates>-77.0678185,-12.0817184,0</coordinates></Point></Placemark><Placemark><name>98. Barista Coffee House</name><description>, Argentina</description><styleUrl>#default</styleUrl><Point><coordinates>-60.6474489,-32.9655823,0</coordinates></Point></Placemark><Placemark><name>99. Café Bauda</name><description>, Chile</description><styleUrl>#default</styleUrl><Point><coordinates>-73.760192,-42.4767972,0</coordinates></Point></Placemark><Placemark><name>100. Calu&amp;#8217;s</name><description>, Argentina</description><styleUrl>#default</styleUrl><Point><coordinates>-58.4742451,-34.5508173,0</coordinates></Point></Placemark></Folder><Folder><name>Top 100</name><Placemark><name>1. Onyx Coffee LAB</name><description>Rogers, Arkansas, USA</description><styleUrl>#top10</styleUrl><Point><coordinates>-94.11587329999999,36.3333573,0</coordinates></Point></Placemark><Placemark><name>2. Tim Wendelboe</name><description>, Norway</description><styleUrl>#top10</styleUrl><Point><coordinates>10.7557482,59.9232769,0</coordinates></Point></Placemark><Placemark><name>3. Alquimia Coffee</name><description>, El Salvador</description><styleUrl>#top10</styleUrl><Point><coordinates>-89.2426957,13.6928745,0</coordinates></Point></Placemark><Placemark><name>4. Only Coffee Project Crows Nest</name><description>, Australia</description><styleUrl>#top10</styleUrl><Point><coordinates>151.2006511,-33.8242841,0</coordinates></Point></Placemark><Placemark><name>5. Toby&amp;#8217;s Estate Coffee Roasters</name><description>, Australia</description><styleUrl>#top10</styleUrl><Point><coordinates>151.1944136,-33.8858584,0</coordinates></Point></Placemark><Placemark><name>6. Apartment Coffee</name><description>, Singapore</description><styleUrl>#top10</styleUrl><Point><coordinates>103.8499343,1.3028157,0</coordinates></Point></Placemark><Placemark><name>7. Gota Coffee Experts</name><description>Vienna, Austria, Austria</description><styleUrl>#top10</styleUrl><Point><coordinates>16.3269157,48.1915042,0</coordinates></Point></Placemark><Placemark><name>8. Story of Ono</name><description>, Malaysia</description><styleUrl>#top10</styleUrl><Point><coordinates>101.6215677,3.114084,0</coordinates></Point></Placemark><Placemark><name>9. Tropicalia Coffee</name><description>, Colombia</description><styleUrl>#top10</styleUrl><Point><coordinates>-74.0506899,4.6637286,0</coordinates></Point></Placemark><Placemark><name>10. Tanat</name><description>, France</description><styleUrl>#top10</styleUrl><Point><coordinates>2.3462519,48.8584219,0</coordinates></Point></Placemark><Placemark><name>11. FANKØR</name><description>, Ecuador</description><styleUrl>#default</styleUrl><Point><coordinates>-78.4819266,-0.20011,0</coordinates></Point></Placemark><Placemark><name>12. Arcane Estate Coffee</name><description>the western province of Chiriquí, where high elevation, USA</description><styleUrl>#default</styleUrl><Point><coordinates>-74.00275979999999,40.7312804,0</coordinates></Point></Placemark><Placemark><name>13. Beta Coffee</name><description>, Australia</description><styleUrl>#default</styleUrl><Point><coordinates>151.2077186,-33.8859385,0</coordinates></Point></Placemark><Placemark><name>14. Nomadic Specialty Coffee</name><description>, Egypt</description><styleUrl>#default</styleUrl><Point><coordinates>31.22163459999999,30.0659289,0</coordinates></Point></Placemark><Placemark><name>15. Nemesis Coffee</name><description>, Canada</description><styleUrl>#default</styleUrl><Point><coordinates>-123.1102881,49.28280119999999,0</coordinates></Point></Placemark><Placemark><name>16. Nomad Frutas Selectas</name><description>the heart of Poblenou, Frutas Selectas by Nomad Coffee is more than just a café—it’s a space designed to celebrate specialty coffee at its finest, Spain</description><styleUrl>#default</styleUrl><Point><coordinates>2.1956227,41.397966,0</coordinates></Point></Placemark><Placemark><name>17. Kafi Wasi Café Tostaduría</name><description>a white sillar (ashlar […], Peru</description><styleUrl>#default</styleUrl><Point><coordinates>-71.5392097,-16.3986215,0</coordinates></Point></Placemark><Placemark><name>18. Benchmark Coffee</name><description>, UAE</description><styleUrl>#default</styleUrl><Point><coordinates>55.4742758,25.3184047,0</coordinates></Point></Placemark><Placemark><name>19. Hola Coffee Lagasca</name><description>, Spain</description><styleUrl>#default</styleUrl><Point><coordinates>-3.685306299999999,40.4250325,0</coordinates></Point></Placemark><Placemark><name>20. BlendIn Coffee Club</name><description>, Texas (USA)</description><styleUrl>#default</styleUrl><Point><coordinates>-95.6296198,29.6198189,0</coordinates></Point></Placemark><Placemark><name>21. Holaste! Specialty Coffee</name><description>the city center of Puerto Natales, Magallanes Region, Chile</description><styleUrl>#default</styleUrl><Point><coordinates>-72.50746,-51.7261499,0</coordinates></Point></Placemark><Placemark><name>22. Momos Coffee Flagship Store</name><description>, Republic of Korea</description><styleUrl>#default</styleUrl><Point><coordinates>129.086493,35.2192553,0</coordinates></Point></Placemark><Placemark><name>23. Monotono Specialty Coffee</name><description>, Peru</description><styleUrl>#default</styleUrl><Point><coordinates>-77.0219778,-12.1402626,0</coordinates></Point></Placemark><Placemark><name>24. Ult Coffee</name><description>Osaka, Japan, Japan</description><styleUrl>#default</styleUrl><Point><coordinates>135.4950316,34.6877502,0</coordinates></Point></Placemark><Placemark><name>25. El Injerto</name><description>, Guatemala</description><styleUrl>#default</styleUrl><Point><coordinates>-90.52142450000001,14.5881773,0</coordinates></Point></Placemark><Placemark><name>26. Three Monkeys Coffee</name><description>, Peru</description><styleUrl>#default</styleUrl><Point><coordinates>-71.9749574,-13.5177829,0</coordinates></Point></Placemark><Placemark><name>27. Proud Mary Coffee</name><description>, Australia</description><styleUrl>#default</styleUrl><Point><coordinates>144.9851717,-37.8023383,0</coordinates></Point></Placemark><Placemark><name>28. Koffee Mameya Kakeru</name><description>, Japan</description><styleUrl>#default</styleUrl><Point><coordinates>139.8041913,35.6764629,0</coordinates></Point></Placemark><Placemark><name>29. Coffee Anthology</name><description>Brisbane, Australia, Australia</description><styleUrl>#default</styleUrl><Point><coordinates>153.0280493,-27.4704616,0</coordinates></Point></Placemark><Placemark><name>30. 7g Roaster</name><description>, Portugal</description><styleUrl>#default</styleUrl><Point><coordinates>-8.61402,41.13695,0</coordinates></Point></Placemark><Placemark><name>31. Espresso Alchemy</name><description>, China</description><styleUrl>#default</styleUrl><Point><coordinates>114.1721995,22.3008171,0</coordinates></Point></Placemark><Placemark><name>32. Coffeewerk + Press</name><description>, Ireland</description><styleUrl>#default</styleUrl><Point><coordinates>-9.0539731,53.2713459,0</coordinates></Point></Placemark><Placemark><name>33. Typica Café</name><description>La Paz, Bolivia, Bolivia</description><styleUrl>#default</styleUrl><Point><coordinates>-68.1302809,-16.5034865,0</coordinates></Point></Placemark><Placemark><name>34. Yardstick</name><description>, The Philippines</description><styleUrl>#default</styleUrl><Point><coordinates>121.0172259,14.5569031,0</coordinates></Point></Placemark><Placemark><name>35. Histórico</name><description>San Cristóbal de las Casas, it is part of Finca Hamburgo (founded in 1888) and represents the urban continuity of its coffee legacy, Mexico</description><styleUrl>#default</styleUrl><Point><coordinates>-92.6379528,16.7364632,0</coordinates></Point></Placemark><Placemark><name>36. Coffee Sind</name><description>Taipei, Coffee Sind is devoted to serving high-quality coffee in a lifestyle-inspired way, Taiwan</description><styleUrl>#default</styleUrl><Point><coordinates>121.5321404,25.0410858,0</coordinates></Point></Placemark><Placemark><name>37. DeLafinca Specialty Coffee</name><description>, Nicaragua</description><styleUrl>#default</styleUrl><Point><coordinates>-86.2473138,12.1310778,0</coordinates></Point></Placemark><Placemark><name>38. Ottoman Coffee House</name><description>, United Kingdom</description><styleUrl>#default</styleUrl><Point><coordinates>-4.2748397,55.8650191,0</coordinates></Point></Placemark><Placemark><name>39. Casa Canela</name><description>, Venezuela</description><styleUrl>#default</styleUrl><Point><coordinates>-66.8258463,10.424004,0</coordinates></Point></Placemark><Placemark><name>40. Espresso LAB</name><description>, South Africa</description><styleUrl>#default</styleUrl><Point><coordinates>18.45716,-33.9274763,0</coordinates></Point></Placemark><Placemark><name>41. Seven Mystery</name><description>, Canada</description><styleUrl>#default</styleUrl><Point><coordinates>-79.2788527,43.7815254,0</coordinates></Point></Placemark><Placemark><name>42. Faro</name><description>, Italy</description><styleUrl>#default</styleUrl><Point><coordinates>12.4984435,41.9101357,0</coordinates></Point></Placemark><Placemark><name>43. Domestique</name><description>Birmingham, Alabama, USA</description><styleUrl>#default</styleUrl><Point><coordinates>-86.7745711,33.5242119,0</coordinates></Point></Placemark><Placemark><name>44. Harvest Coffee</name><description>, Qatar</description><styleUrl>#default</styleUrl><Point><coordinates>51.5409049,25.3648787,0</coordinates></Point></Placemark><Placemark><name>45. Origen Tostadores de Café</name><description>, Peru</description><styleUrl>#default</styleUrl><Point><coordinates>-77.06629579999999,-12.0725883,0</coordinates></Point></Placemark><Placemark><name>46. KEEP Coffee Roastery</name><description>, Taiwan</description><styleUrl>#default</styleUrl><Point><coordinates>120.3174687,22.6407171,0</coordinates></Point></Placemark><Placemark><name>47. Meet LAB Coffee</name><description>, Turkey</description><styleUrl>#default</styleUrl><Point><coordinates>29.0682909,40.9660062,0</coordinates></Point></Placemark><Placemark><name>48. Mulano Coffee Shop</name><description>the south of Ecuador in a city of 25,000 inhabitants called Piñas, Ecuador</description><styleUrl>#default</styleUrl><Point><coordinates>-79.6816087,-3.680046,0</coordinates></Point></Placemark><Placemark><name>49. La Cabra</name><description>Copenhagen, Denmark, Denmark</description><styleUrl>#default</styleUrl><Point><coordinates>12.5790398,55.6815858,0</coordinates></Point></Placemark><Placemark><name>50. Birch Coffee</name><description>, United Kingdom</description><styleUrl>#default</styleUrl><Point><coordinates>-6.194154,57.41152289999999,0</coordinates></Point></Placemark><Placemark><name>51. Ruli Coffee</name><description>, Republic of Korea</description><styleUrl>#default</styleUrl><Point><coordinates>126.9861996,37.5588412,0</coordinates></Point></Placemark><Placemark><name>52. Atte For Coffee</name><description>, Guatemala</description><styleUrl>#default</styleUrl><Point><coordinates>-90.5148127,14.619461,0</coordinates></Point></Placemark><Placemark><name>53. Single O</name><description>the heart of Surry Hills, Sydney, Australia</description><styleUrl>#default</styleUrl><Point><coordinates>151.2096577,-33.881047,0</coordinates></Point></Placemark><Placemark><name>54. Rubia Coffee Roasters</name><description>, Rwanda</description><styleUrl>#default</styleUrl><Point><coordinates>30.0828131,-1.9543794,0</coordinates></Point></Placemark><Placemark><name>55. Bob Coffee Lab</name><description>, Romania</description><styleUrl>#default</styleUrl><Point><coordinates>26.0854922,44.4654555,0</coordinates></Point></Placemark><Placemark><name>56. Unfiltered coffee</name><description>, Ireland</description><styleUrl>#default</styleUrl><Point><coordinates>-6.320501,53.3395689,0</coordinates></Point></Placemark><Placemark><name>57. Tomorrow Coffee Roasters</name><description>, Taiwan</description><styleUrl>#default</styleUrl><Point><coordinates>120.6281729,24.1536683,0</coordinates></Point></Placemark><Placemark><name>58. Ca Passe Creme</name><description>, Switzerland</description><styleUrl>#default</styleUrl><Point><coordinates>6.625384899999999,46.516405,0</coordinates></Point></Placemark><Placemark><name>59. Eco Mapu</name><description>, Chile</description><styleUrl>#default</styleUrl><Point><coordinates>-72.224107,-39.2843333,0</coordinates></Point></Placemark><Placemark><name>60. 43.12 Coffee</name><description>the heart of Varna, Bulgaria</description><styleUrl>#default</styleUrl><Point><coordinates>27.9154545,43.1997418,0</coordinates></Point></Placemark><Placemark><name>61. Fika &amp;amp; Co. Cafe</name><description>, Thailand</description><styleUrl>#default</styleUrl><Point><coordinates>100.5642094,13.7485011,0</coordinates></Point></Placemark><Placemark><name>62. Ditta Artigianale Specialty Coffee Roasters</name><description>, Italy</description><styleUrl>#default</styleUrl><Point><coordinates>9.175969799999999,45.4658289,0</coordinates></Point></Placemark><Placemark><name>63. Café Nativo</name><description>, Honduras</description><styleUrl>#default</styleUrl><Point><coordinates>-87.1911719,14.1001875,0</coordinates></Point></Placemark><Placemark><name>64. Caferatto</name><description>, Colombia</description><styleUrl>#default</styleUrl><Point><coordinates>-75.4877292,5.057979899999999,0</coordinates></Point></Placemark><Placemark><name>65. Kross Coffee Roasters</name><description>, Greece</description><styleUrl>#default</styleUrl><Point><coordinates>24.0209797,35.515193,0</coordinates></Point></Placemark><Placemark><name>66. Prevail Coffee</name><description>Montgomery, Alabama, USA</description><styleUrl>#default</styleUrl><Point><coordinates>-86.3082994,32.3777176,0</coordinates></Point></Placemark><Placemark><name>67. MOK Coffee</name><description>, Belgium</description><styleUrl>#default</styleUrl><Point><coordinates>4.341749399999999,50.8528174,0</coordinates></Point></Placemark><Placemark><name>68. Azura &amp;#8211; The Coffee Company</name><description>, Oman</description><styleUrl>#default</styleUrl><Point><coordinates>58.148331,23.6453963,0</coordinates></Point></Placemark><Placemark><name>69. Puku Puku</name><description>, Peru</description><styleUrl>#default</styleUrl><Point><coordinates>-77.0300644,-12.1324766,0</coordinates></Point></Placemark><Placemark><name>70. The Golden Pig</name><description>, Honduras</description><styleUrl>#default</styleUrl><Point><coordinates>-88.0440769,15.507472,0</coordinates></Point></Placemark><Placemark><name>71. Little Victories Coffee</name><description>, Canada</description><styleUrl>#default</styleUrl><Point><coordinates>-75.6954342,45.4232453,0</coordinates></Point></Placemark><Placemark><name>72. Push Pull</name><description>Portland, Oregon, USA</description><styleUrl>#default</styleUrl><Point><coordinates>-122.6568709,45.5194845,0</coordinates></Point></Placemark><Placemark><name>73. Galani Coffee</name><description>, Ethiopia</description><styleUrl>#default</styleUrl><Point><coordinates>38.8217566,9.011787199999999,0</coordinates></Point></Placemark><Placemark><name>74. Wake up</name><description>, Chile</description><styleUrl>#default</styleUrl><Point><coordinates>-70.90637699999999,-53.1650489,0</coordinates></Point></Placemark><Placemark><name>75. Bouche</name><description>, Belgium</description><styleUrl>#default</styleUrl><Point><coordinates>4.3596525,50.8416133,0</coordinates></Point></Placemark><Placemark><name>76. Café de Reyes</name><description>Quetzaltenango, Guatemala, Guatemala</description><styleUrl>#default</styleUrl><Point><coordinates>-91.5174066,14.8450544,0</coordinates></Point></Placemark><Placemark><name>77. Savaya Coffee Market</name><description>Tucson, Arizona, USA</description><styleUrl>#default</styleUrl><Point><coordinates>-110.8529403,32.2455883,0</coordinates></Point></Placemark><Placemark><name>78. Coffee Stopover Black</name><description>Taichung, Taiwan, Taiwan</description><styleUrl>#default</styleUrl><Point><coordinates>120.671868,24.1454638,0</coordinates></Point></Placemark><Placemark><name>79. Fuku</name><description>Amsterdam, The Netherlands, Netherlands</description><styleUrl>#default</styleUrl><Point><coordinates>4.855158100000001,52.3812737,0</coordinates></Point></Placemark><Placemark><name>80. The Miners Coffee</name><description>, Czech Republic</description><styleUrl>#default</styleUrl><Point><coordinates>14.4218479,50.0864025,0</coordinates></Point></Placemark><Placemark><name>81. Cupping Café</name><description>, Brazil</description><styleUrl>#default</styleUrl><Point><coordinates>-46.68882139999999,-23.5549482,0</coordinates></Point></Placemark><Placemark><name>82. Coffea Guatemala</name><description>the heart of Antigua Guatemala, Guatemala</description><styleUrl>#default</styleUrl><Point><coordinates>-90.7348663,14.554013,0</coordinates></Point></Placemark><Placemark><name>83. D·Origen Coffee Roasters Barcelona</name><description>, Spain</description><styleUrl>#default</styleUrl><Point><coordinates>2.1731053,41.3908624,0</coordinates></Point></Placemark><Placemark><name>84. Coffee Stain</name><description>, Malaysia</description><styleUrl>#default</styleUrl><Point><coordinates>101.6664314,3.1715266,0</coordinates></Point></Placemark><Placemark><name>84. Café San Rafael</name><description>Copan Ruinas, Copan, Honduras</description><styleUrl>#default</styleUrl></Placemark><Placemark><name>85. The Dude Specialty Coffee</name><description>a restored house, where each room has a unique atmosphere, Macedonia</description><styleUrl>#default</styleUrl><Point><coordinates>21.4198181,41.9978065,0</coordinates></Point></Placemark><Placemark><name>86. Story and Soil Coffee</name><description>Hartford, Connecticut, USA</description><styleUrl>#default</styleUrl><Point><coordinates>-72.6885137,41.7637176,0</coordinates></Point></Placemark><Placemark><name>87. Exploradores</name><description>, Mexico</description><styleUrl>#default</styleUrl><Point><coordinates>-99.275689,19.3554536,0</coordinates></Point></Placemark><Placemark><name>88. The Folks</name><description>Lisbon, Portugal</description><styleUrl>#default</styleUrl><Point><coordinates>-9.1383587,38.7110619,0</coordinates></Point></Placemark><Placemark><name>89. Casa Barista &amp;#038; Co.,Casco Historico</name><description>, Dominican Republic</description><styleUrl>#default</styleUrl><Point><coordinates>-69.88477809999999,18.474361,0</coordinates></Point></Placemark><Placemark><name>90. Cypher Urban Roastery</name><description>, UAE</description><styleUrl>#default</styleUrl><Point><coordinates>55.20919560000001,25.1224432,0</coordinates></Point></Placemark><Placemark><name>91. Cafetano Coffee Roasters</name><description>the heart of Honduras, Cafetano is more than just a coffee shop; it’s a tribute to Honduran coffee and its local producers, Honduras</description><styleUrl>#default</styleUrl><Point><coordinates>-87.18622409999999,14.0891693,0</coordinates></Point></Placemark><Placemark><name>92. Coffee Five</name><description>, Brazil</description><styleUrl>#default</styleUrl><Point><coordinates>-43.1767791,-22.9025663,0</coordinates></Point></Placemark><Placemark><name>93. Kima Coffee</name><description>, Spain</description><styleUrl>#default</styleUrl><Point><coordinates>-4.4229259,36.7238288,0</coordinates></Point></Placemark><Placemark><name>94. Negro</name><description>, Argentina</description><styleUrl>#default</styleUrl><Point><coordinates>-58.3795636,-34.600878,0</coordinates></Point></Placemark><Placemark><name>95. Metric</name><description>, Illinois (USA)</description><styleUrl>#default</styleUrl><Point><coordinates>-87.6778477,41.8866605,0</coordinates></Point></Placemark><Placemark><name>96. El Terrible Juan Café</name><description>, México</description><styleUrl>#default</styleUrl><Point><coordinates>-103.3662362,20.6694613,0</coordinates></Point></Placemark><Placemark><name>97. Flat White Specialty Coffee</name><description>, Qatar</description><styleUrl>#default</styleUrl><Point><coordinates>51.4418359,25.3146714,0</coordinates></Point></Placemark><Placemark><name>98. Cafeoteca</name><description>San Jose, Costa Rica, Costa Rica</description><styleUrl>#default</styleUrl><Point><coordinates>-84.06454730000002,9.9283386,0</coordinates></Point></Placemark><Placemark><name>99. Surry Hills Coffee</name><description>, Argentina</description><styleUrl>#default</styleUrl><Point><coordinates>-58.4312759,-34.5722912,0</coordinates></Point></Placemark></Folder></Document></kml>